[
  { "name": "Subotica", "lat": 46.02106890344609, "lon": 19.733910649991444 },
  { "name": "Žednik", "lat": 45.93384453147707, "lon": 19.71117780120375 },
  { "name": "Žednik", "lat": 45.93460121063231, "lon": 19.707608795926046 },
  { "name": "Bačka Topola", "lat": 45.823285179354485, "lon": 19.684974590667903 },
  { "name": "Bačka Topola", "lat": 45.82479337322845, "lon": 19.68902113825943 },
  { "name": "Feketić", "lat": 45.64696156875988, "lon": 19.715463916506003 },
  { "name": "Feketić", "lat": 45.64021643128393, "lon": 19.71454368940266 },
  { "name": "Vrbas", "lat": 45.55528309861727, "lon": 19.72191898082579 },
  { "name": "Vrbas", "lat": 45.55433001632155, "lon": 19.717672988814417 },
  { "name": "Zmajevo", "lat": 45.4421554762748, "lon": 19.735398290854523 },
  { "name": "Zmajevo", "lat": 45.440386684230006, "lon": 19.739509344848877 },
  { "name": "Novi Sad - Sever", "lat": 45.31342920000717, "lon": 19.799703335089973 },
  { "name": "Novi Sad - Sever", "lat": 45.31299543165548, "lon": 19.798928462360724 },
  { "name": "Novi Sad - Jug", "lat": 45.288294274934515, "lon": 19.891000272988602 },
  { "name": "Novi Sad - Jug", "lat": 45.28777385326619, "lon": 19.89048962398107 },
  { "name": "Kovilj", "lat": 45.24061597882737, "lon": 20.0346854316838 },
  { "name": "Beška", "lat": 45.13522044872803, "lon": 20.090223812706657 },
  { "name": "Mardik", "lat": 45.09946287267919, "lon": 20.10294143592957 },
  { "name": "Inđija", "lat": 45.069734814412364, "lon": 20.148063199600436 },
  { "name": "Stara Pazova", "lat": 45.00648105438985, "lon": 20.201380249894786 }
]