[
  { "name": "SUBOTICA", "hwsection": "A1S", "lat": 46.02106890344609, "lon": 19.733910649991444 },
  { "name": "ZEDNIK", "hwsection": "A1S", "lat": 45.93384453147707, "lon": 19.71117780120375 },
  { "name": "ZEDNIK", "hwsection": "A1S", "lat": 45.93460121063231, "lon": 19.707608795926046 },
  { "name": "BACKA_TOPOLA", "hwsection": "A1S", "lat": 45.823285179354485, "lon": 19.684974590667903 },
  { "name": "BACKA_TOPOLA", "hwsection": "A1S", "lat": 45.82479337322845, "lon": 19.68902113825943 },
  { "name": "FEKETIC", "hwsection": "A1S", "lat": 45.64696156875988, "lon": 19.715463916506003 },
  { "name": "FEKETIC", "hwsection": "A1S", "lat": 45.64021643128393, "lon": 19.71454368940266 },
  { "name": "VRBAS", "hwsection": "A1S", "lat": 45.55528309861727, "lon": 19.72191898082579 },
  { "name": "VRBAS", "hwsection": "A1S", "lat": 45.55433001632155, "lon": 19.717672988814417 },
  { "name": "ZMAJEVO", "hwsection": "A1S", "lat": 45.4421554762748, "lon": 19.735398290854523 },
  { "name": "ZMAJEVO", "hwsection": "A1S", "lat": 45.440386684230006, "lon": 19.739509344848877 },
  { "name": "NOVI_SAD", "hwsection": "A1S", "lat": 45.31342920000717, "lon": 19.799703335089973 },
  { "name": "NOVI_SAD", "hwsection": "A1S", "lat": 45.31299543165548, "lon": 19.798928462360724 },
  { "name": "NOVI_SAD", "hwsection": "A1S", "lat": 45.288294274934515, "lon": 19.891000272988602 },
  { "name": "NOVI_SAD", "hwsection": "A1S", "lat": 45.28777385326619, "lon": 19.89048962398107 },
  { "name": "KOVILJ", "hwsection": "A1S", "lat": 45.24061597882737, "lon": 20.0346854316838 },
  { "name": "BESKA", "hwsection": "A1S", "lat": 45.13522044872803, "lon": 20.090223812706657 },
  { "name": "MEDERIK", "hwsection": "A1S", "lat": 45.09946287267919, "lon": 20.10294143592957 },
  { "name": "INDJIJA", "hwsection": "A1S", "lat": 45.069734814412364, "lon": 20.148063199600436 },
  { "name": "STARA_PAZOVA", "hwsection": "A1S", "lat": 45.00648105438985, "lon": 20.201380249894786 },
  { "name": "SIMANOVCI", "hwsection": "A3_A8", "lat": 44.88221850434035, "lon": 20.113772758704783 },
  { "name": "PECINCI", "hwsection": "A3_A8", "lat": 44.91880779432139, "lon": 19.953060745393184 },
  { "name": "RUMA", "hwsection": "A3_A8", "lat": 44.96786337641689, "lon": 19.808515353041052 },
  { "name": "SREMSKA_MITROVICA", "hwsection": "A3_A8", "lat": 44.99538179783079, "lon": 19.645060717478966 },
  { "name": "KUZMIN", "hwsection": "A3_A8", "lat": 45.035715796264995, "lon": 19.386282040103723 },
  { "name": "ADASEVCI", "hwsection": "A3_A8", "lat": 45.05008849199662, "lon": 19.209662734680315 },
  { "name": "ADASEVCI", "hwsection": "A3_A8", "lat": 45.04600523166057, "lon": 19.21022295816451 },
  { "name": "SID", "hwsection": "A3_A8", "lat": 45.04837898682165, "lon": 19.192467940576968 },
  { "name": "HRTKOVCI", "hwsection": "A3_A8", "lat": 44.85945761072267, "lon": 19.774768831864215 },
  { "name": "SABAC", "hwsection": "A3_A8", "lat": 44.80826312898593, "lon": 19.719022699573515 },
  { "name": "OBRENOVAC", "hwsection": "A2", "lat": 44.57230027534028, "lon": 20.19050165403579 },
  { "name": "UB", "hwsection": "A2", "lat": 44.45489101136809, "lon": 20.121498093341806 },
  { "name": "LAJKOVAC", "hwsection": "A2", "lat": 44.35985949304546, "lon": 20.130906046842888 },
  { "name": "LJIG", "hwsection": "A2", "lat": 44.23177056268506, "lon": 20.24942451665452 },
  { "name": "TAKOVO", "hwsection": "A2", "lat": 44.043759745722355, "lon": 20.381704669384863 },
  { "name": "PRELJINA", "hwsection": "A2", "lat": 43.917289223723834, "lon": 20.40061603312928 },
  { "name": "PAKOVRACE", "hwsection": "A2", "lat": 43.90309941632454, "lon": 20.261551747032865 },
  { "name": "LUCANI", "hwsection": "A2", "lat": 43.83670381000361, "lon": 20.156800742900405 },
  { "name": "PRILIPAC", "hwsection": "A2", "lat": 43.82029651657851, "lon": 20.091258204347632 },
  { "name": "BEOGRAD", "hwsection": "A1J_A5_A4", "lat": 44.66429076198235, "lon": 20.612174469294523 },
  { "name": "MALI_POZAREVAC", "hwsection": "A1J_A5_A4", "lat": 44.563063259464016, "lon": 20.66950649150678 },
  { "name": "UMCARI", "hwsection": "A1J_A5_A4", "lat": 44.575498215476856, "lon": 20.74511200590474 },
  { "name": "UMCARI", "hwsection": "A1J_A5_A4", "lat": 44.57566218852225, "lon": 20.74533583083905 },
  { "name": "UMCARI", "hwsection": "A1J_A5_A4", "lat": 44.57454025477001, "lon": 20.74639482945875 },
  { "name": "VODANJ", "hwsection": "A1J_A5_A4", "lat": 44.58517151162471, "lon": 20.81909700879609 },
  { "name": "VODANJ", "hwsection": "A1J_A5_A4", "lat": 44.582805654448535, "lon": 20.82146615242484 },
  { "name": "KOLARI", "hwsection": "A1J_A5_A4", "lat": 44.576431486599695, "lon": 20.895416390672906 },
  { "name": "KOLARI", "hwsection": "A1J_A5_A4", "lat": 44.57478604967614, "lon": 20.895093356528367 },
  { "name": "SMEDEREVO", "hwsection": "A1J_A5_A4", "lat": 44.58994709260328, "lon": 20.957310230973498 },
  { "name": "POZAREVAC", "hwsection": "A1J_A5_A4", "lat": 44.57993618656514, "lon": 20.982605168829817 },
  { "name": "VELIKA_PLANA", "hwsection": "A1J_A5_A4", "lat": 44.33910380462577, "lon": 21.080094806936952 },
  { "name": "MARKOVAC", "hwsection": "A1J_A5_A4", "lat": 44.23950315772497, "lon": 21.116733494375715 },
  { "name": "MARKOVAC", "hwsection": "A1J_A5_A4", "lat": 44.23721356984314, "lon": 21.119679817628665 },
  { "name": "LAPOVO", "hwsection": "A1J_A5_A4", "lat": 44.18442874889058, "lon": 21.11187602631021 },
  { "name": "LAPOVO", "hwsection": "A1J_A5_A4", "lat": 44.18465630367899, "lon": 21.110173860486476 },
  { "name": "BATOCINA", "hwsection": "A1J_A5_A4", "lat": 44.15157170701188, "lon": 21.114537058064915 },
  { "name": "BATOCINA", "hwsection": "A1J_A5_A4", "lat": 44.15026638377277, "lon": 21.112389809057184 },
  { "name": "JAGODINA", "hwsection": "A1J_A5_A4", "lat": 43.99893261671604, "lon": 21.26633569673316 },
  { "name": "CUPRIJA", "hwsection": "A1J_A5_A4", "lat": 43.938008933222726, "lon": 21.39014094923429 },
  { "name": "CUPRIJA", "hwsection": "A1J_A5_A4", "lat": 43.93423860121353, "lon": 21.389012446469252 },
  { "name": "PARACIN", "hwsection": "A1J_A5_A4", "lat": 43.857304448578915, "lon": 21.43775280489492 },
  { "name": "PARACIN", "hwsection": "A1J_A5_A4", "lat": 43.85612079232132, "lon": 21.433489344949486 },
  { "name": "RAZANJ", "hwsection": "A1J_A5_A4", "lat": 43.68402301049884, "lon": 21.54623480222916 },
  { "name": "ALEKS_RUDNICI", "hwsection": "A1J_A5_A4", "lat": 43.551540915425875, "lon": 21.688703865148145 },
  { "name": "ALEKSINAC", "hwsection": "A1J_A5_A4", "lat": 43.52626430137857, "lon": 21.722170303663198 },
  { "name": "NIS_JUG", "hwsection": "A1J_A5_A4", "lat": 43.32751079172359, "lon": 21.81570761599049 },
  { "name": "MEROSINA", "hwsection": "A1J_A5_A4", "lat": 43.27929604961101, "lon": 21.798151068878404 },
  { "name": "DOLJEVAC", "hwsection": "A1J_A5_A4", "lat": 43.19329577081103, "lon": 21.850347026763554 },
  { "name": "BRESTOVAC", "hwsection": "A1J_A5_A4", "lat": 43.14984534060368, "lon": 21.89268365546657 },
  { "name": "LESKOVAC_CENTAR", "hwsection": "A1J_A5_A4", "lat": 43.09006844815617, "lon": 21.93832440940088 },
  { "name": "LESKOVAC_JUG", "hwsection": "A1J_A5_A4", "lat": 42.970590729640385, "lon": 22.033930173323476 },
  { "name": "GRDELICA", "hwsection": "A1J_A5_A4", "lat": 42.88625241016728, "lon": 22.068611488072243 },
  { "name": "PREDEJANE", "hwsection": "A1J_A5_A4", "lat": 42.82035639981387, "lon": 22.12374119839597 },
  { "name": "VLADUCIN_HAN", "hwsection": "A1J_A5_A4", "lat": 42.703495038225064, "lon": 22.072405799640972 },
  { "name": "VRANJE", "hwsection": "A1J_A5_A4", "lat": 42.54411231844413, "lon": 21.928085588242677 },
  { "name": "BUJANOVAC_SEVER", "hwsection": "A1J_A5_A4", "lat": 42.46686366742635, "lon": 21.808668832503507 },
  { "name": "BUJANOVAC_JUG", "hwsection": "A1J_A5_A4", "lat": 42.45318135540388, "lon": 21.777551264936484 },
  { "name": "PRESEVO", "hwsection": "A1J_A5_A4", "lat": 42.30264286659158, "lon": 21.709569619887606 },
  { "name": "CICEVAC", "hwsection": "A1J_A5_A4", "lat": 43.72274399711651, "lon": 21.420833140932302 },
  { "name": "KRUSEVAC_ISTOK", "hwsection": "A1J_A5_A4", "lat": 43.605258399679926, "lon": 21.33431484259715 },
  { "name": "KRUSEVAC_ZAPAD", "hwsection": "A1J_A5_A4", "lat": 43.60778642548417, "lon": 21.308331661476117 },
  { "name": "VELIKA_DRENOVA", "hwsection": "A1J_A5_A4", "lat": 43.61526228451275, "lon": 21.171784918352078 },
  { "name": "TRSTENIK", "hwsection": "A1J_A5_A4", "lat": 43.61943276376963, "lon": 21.02213419244119 },
  { "name": "VRNJACKA_BANJA", "hwsection": "A1J_A5_A4", "lat": 43.64923517917891, "lon": 20.91135144415277 },
  { "name": "NIS_SEVER", "hwsection": "A1J_A5_A4", "lat": 43.34969636171853, "lon": 21.858194006538973 },
  { "name": "NIS_ISTOK", "hwsection": "A1J_A5_A4", "lat": 43.342132953064414, "lon": 21.936316074679976 },
  { "name": "NIS_MALCA", "hwsection": "A1J_A5_A4", "lat": 43.31917954164554, "lon": 22.019853447698047 },
  { "name": "BELA_PALANKA", "hwsection": "A1J_A5_A4", "lat": 43.23373909149772, "lon": 22.316505422228754 },
  { "name": "PIROT_ZAPAD", "hwsection": "A1J_A5_A4", "lat": 43.18844987774733, "lon": 22.566535047510516 },
  { "name": "PIROT_ISTOK", "hwsection": "A1J_A5_A4", "lat": 43.12358232991054, "lon": 22.618643505291576 },
  { "name": "DIMITROVGRAD", "hwsection": "A1J_A5_A4", "lat": 43.02186377508048, "lon": 22.736363495733947 }
]