[
  { "name": "SUBOTICA", "hwsection": "A1S", "lat": 46.02106890344609, "lon": 19.733910649991444 },
  { "name": "ZEDNIK", "hwsection": "A1S", "lat": 45.93384453147707, "lon": 19.71117780120375 },
  { "name": "ZEDNIK", "hwsection": "A1S", "lat": 45.93460121063231, "lon": 19.707608795926046 },
  { "name": "BACKA_TOPOLA", "hwsection": "A1S", "lat": 45.823285179354485, "lon": 19.684974590667903 },
  { "name": "BACKA_TOPOLA", "hwsection": "A1S", "lat": 45.82479337322845, "lon": 19.68902113825943 },
  { "name": "FEKETIC", "hwsection": "A1S", "lat": 45.64696156875988, "lon": 19.715463916506003 },
  { "name": "FEKETIC", "hwsection": "A1S", "lat": 45.64021643128393, "lon": 19.71454368940266 },
  { "name": "VRBAS", "hwsection": "A1S", "lat": 45.55528309861727, "lon": 19.72191898082579 },
  { "name": "VRBAS", "hwsection": "A1S", "lat": 45.55433001632155, "lon": 19.717672988814417 },
  { "name": "ZMAJEVO", "hwsection": "A1S", "lat": 45.4421554762748, "lon": 19.735398290854523 },
  { "name": "ZMAJEVO", "hwsection": "A1S", "lat": 45.440386684230006, "lon": 19.739509344848877 },
  { "name": "NOVI_SAD", "hwsection": "A1S", "lat": 45.31342920000717, "lon": 19.799703335089973 },
  { "name": "NOVI_SAD", "hwsection": "A1S", "lat": 45.31299543165548, "lon": 19.798928462360724 },
  { "name": "NOVI_SAD", "hwsection": "A1S", "lat": 45.288294274934515, "lon": 19.891000272988602 },
  { "name": "NOVI_SAD", "hwsection": "A1S", "lat": 45.28777385326619, "lon": 19.89048962398107 },
  { "name": "KOVILJ", "hwsection": "A1S", "lat": 45.24061597882737, "lon": 20.0346854316838 },
  { "name": "BESKA", "hwsection": "A1S", "lat": 45.13522044872803, "lon": 20.090223812706657 },
  { "name": "MEDERIK", "hwsection": "A1S", "lat": 45.09946287267919, "lon": 20.10294143592957 },
  { "name": "INDJIJA", "hwsection": "A1S", "lat": 45.069734814412364, "lon": 20.148063199600436 },
  { "name": "STARA_PAZOVA", "hwsection": "A1S", "lat": 45.00648105438985, "lon": 20.201380249894786 },
  { "name": "SIMANOVCI", "hwsection": "A3_A8", "lat": 44.88221850434035, "lon": 20.113772758704783 },
  { "name": "PECINCI", "hwsection": "A3_A8", "lat": 44.91880779432139, "lon": 19.953060745393184 },
  { "name": "RUMA", "hwsection": "A3_A8", "lat": 44.96786337641689, "lon": 19.808515353041052 },
  { "name": "SREMSKA_MITROVICA", "hwsection": "A3_A8", "lat": 44.99538179783079, "lon": 19.645060717478966 },
  { "name": "KUZMIN", "hwsection": "A3_A8", "lat": 45.035715796264995, "lon": 19.386282040103723 },
  { "name": "ADASEVCI", "hwsection": "A3_A8", "lat": 45.05008849199662, "lon": 19.209662734680315 },
  { "name": "ADASEVCI", "hwsection": "A3_A8", "lat": 45.04600523166057, "lon": 19.21022295816451 },
  { "name": "SID", "hwsection": "A3_A8", "lat": 45.04837898682165, "lon": 19.192467940576968 },
  { "name": "HRTKOVCI", "hwsection": "A3_A8", "lat": 44.85945761072267, "lon": 19.774768831864215 },
  { "name": "SABAC", "hwsection": "A3_A8", "lat": 44.80826312898593, "lon": 19.719022699573515 },
  { "name": "OBRENOVAC", "hwsection": "A2", "lat": 44.57230027534028, "lon": 20.19050165403579 },
  { "name": "UB", "hwsection": "A2", "lat": 44.45489101136809, "lon": 20.121498093341806 },
  { "name": "LAJKOVAC", "hwsection": "A2", "lat": 44.35985949304546, "lon": 20.130906046842888 },
  { "name": "LJIG", "hwsection": "A2", "lat": 44.23177056268506, "lon": 20.24942451665452 },
  { "name": "TAKOVO", "hwsection": "A2", "lat": 44.043759745722355, "lon": 20.381704669384863 },
  { "name": "PRELJINA", "hwsection": "A2", "lat": 43.917289223723834, "lon": 20.40061603312928 },
  { "name": "PAKOVRACE", "hwsection": "A2", "lat": 43.90309941632454, "lon": 20.261551747032865 },
  { "name": "LUCANI", "hwsection": "A2", "lat": 43.83670381000361, "lon": 20.156800742900405 },
  { "name": "PRILIPAC", "hwsection": "A2", "lat": 43.82029651657851, "lon": 20.091258204347632 }
]